{
  "stores": [
    {
      "id": 1,
      "name": "グルテンフリーカフェ 栄",
      "category": "カフェ",
      "address": "愛知県名古屋市中区栄3-15-33",
      "lat": 35.1681,
      "lng": 136.9066,
      "glutenFreeOptions": ["グルテンフリーパン", "ケーキ", "パスタ"],
      "notes": "完全グルテンフリー専門店。事前予約がおすすめ。",
      "website": "",
      "phone": "052-123-4567"
    },
    {
      "id": 2,
      "name": "自然食レストラン みどり",
      "category": "和食",
      "address": "愛知県名古屋市東区泉1-23-45",
      "lat": 35.1792,
      "lng": 136.9154,
      "glutenFreeOptions": ["米粉うどん", "野菜天ぷら", "玄米定食"],
      "notes": "オーガニック食材使用。グルテンフリーメニューあり。",
      "website": "",
      "phone": "052-987-6543"
    },
    {
      "id": 3,
      "name": "パン工房 ひまわり",
      "category": "パン屋",
      "address": "愛知県名古屋市西区牛島町6-1",
      "lat": 35.1898,
      "lng": 136.8776,
      "glutenFreeOptions": ["米粉パン", "グルテンフリー食パン", "米粉クッキー"],
      "notes": "毎日焼きたての米粉パンが人気。火曜定休。",
      "website": "",
      "phone": "052-456-7890"
    },
    {
      "id": 4,
      "name": "イタリアン トラットリア",
      "category": "洋食",
      "address": "愛知県名古屋市中村区名駅3-26-8",
      "lat": 35.1708,
      "lng": 136.8816,
      "glutenFreeOptions": ["グルテンフリーピザ", "米粉パスタ", "リゾット"],
      "notes": "本格イタリアンでグルテンフリー対応。要予約。",
      "website": "",
      "phone": "052-789-0123"
    },
    {
      "id": 5,
      "name": "スイーツショップ さくら",
      "category": "スイーツ",
      "address": "愛知県名古屋市千種区今池1-8-8",
      "lat": 35.1658,
      "lng": 136.9298,
      "glutenFreeOptions": ["米粉ケーキ", "豆乳アイス", "フルーツタルト"],
      "notes": "アレルギー対応スイーツ専門店。誕生日ケーキも対応。",
      "website": "",
      "phone": "052-234-5678"
    },
    {
      "id": 6,
      "name": "健康食品店 ナチュラル",
      "category": "販売店",
      "address": "愛知県名古屋市昭和区御器所2-18-1",
      "lat": 35.1489,
      "lng": 136.9368,
      "glutenFreeOptions": ["グルテンフリー調味料", "米粉", "アーモンド粉"],
      "notes": "グルテンフリー食材の品揃え豊富。料理教室も開催。",
      "website": "",
      "phone": "052-345-6789"
    }
  ]
}